Gemeentecode,Gemeentenaam,Provincienaam,Lat,Lon,20200227,20200228,20200229,20200301,20200302,20200303,20200304,20200305,20200306,20200307,20200308,20200309,20200310,20200311,20200312,20200313,20200314,20200315,20200316,20200317,20200318,20200319,20200320,20200321,20200322,20200323,20200324,20200325,20200326,20200327,20200328,20200329,20200330
1680,Aa en Hunze,Drenthe,53.00552,6.76363,0,0,0,0,0,0,0,0,0,0,0,0,0,0,0,0,0,0,0,0,0,0,0,0,1,1,1,1,3,3,4,4,5
358,Aalsmeer,Noord-Holland,52.233333,4.75,0,0,0,0,0,0,0,0,0,0,0,0,2,2,2,3,3,3,3,3,3,4,5,5,7,8,9,10,11,12,16,16,18
197,Aalten,Gelderland,51.933333000000005,6.5833330000000005,0,0,0,0,0,0,0,0,0,0,0,0,0,0,0,0,0,0,0,0,0,0,1,1,1,1,1,2,2,3,3,3,5
59,Achtkarspelen,Friesland,53.416667000000004,6.25,0,0,0,0,0,0,0,0,0,0,0,0,0,0,0,0,0,0,0,0,0,0,0,0,0,0,0,1,1,2,2,2,2
482,Alblasserdam,Zuid-Holland,51.866667,4.6666669999999995,0,0,0,0,0,0,0,0,0,0,0,0,0,0,0,0,0,0,0,1,1,2,3,3,4,4,4,5,6,6,6,6,7
613,Albrandswaard,Zuid-Holland,51.866667,4.4166669999999995,0,0,0,0,0,0,0,0,0,0,1,1,1,1,1,1,1,1,2,3,4,4,5,8,12,14,18,18,19,21,23,23,25
361,Alkmaar,Noord-Holland,52.61666700000001,4.766667,0,0,0,0,0,0,0,0,0,0,0,0,1,1,1,1,1,1,2,2,5,9,10,11,15,16,20,24,29,36,42,42,49
141,Almelo,Overijssel,52.366667,6.6666669999999995,0,0,0,0,0,0,0,0,0,0,1,1,1,1,1,1,1,1,1,1,1,2,3,4,5,7,8,10,12,14,15,15,20
34,Almere,Flevoland,52.366667,5.216667,0,0,0,0,0,0,0,0,1,1,1,1,1,1,1,1,2,2,3,3,4,5,5,11,14,18,21,28,32,39,48,48,60
484,Alphen aan den Rijn,Zuid-Holland,52.133333,4.65,0,0,0,0,1,1,1,1,1,1,1,1,1,2,3,4,6,6,6,6,9,10,13,15,17,17,20,22,30,32,35,35,44
1723,Alphen-Chaam,Noord-Brabant,51.499167,4.872222,0,0,0,0,0,0,0,0,0,0,0,0,0,0,0,0,1,1,2,3,6,6,6,7,9,14,15,16,19,19,21,21,26
1959,Altena,Noord-Brabant,51.771667,4.960278,0,0,0,1,1,3,3,4,4,4,4,4,4,4,5,8,9,10,12,12,15,19,19,22,23,25,28,35,35,39,41,41,44
60,Ameland,Friesland,53.45,5.753889,0,0,0,0,0,0,0,0,0,0,0,0,0,0,0,0,0,0,0,0,0,0,0,0,0,0,0,0,0,0,0,0,0
307,Amersfoort,Utrecht,52.15,5.383333,0,0,0,0,0,0,0,0,0,0,0,0,0,2,4,4,4,10,18,21,23,30,32,37,37,41,44,47,54,59,63,63,69
362,Amstelveen,Noord-Holland,52.3,4.8333330000000005,0,0,0,0,0,0,0,0,0,1,1,2,2,2,2,3,3,3,4,6,7,13,22,26,27,29,33,35,46,52,63,63,81
363,Amsterdam,Noord-Holland,52.366667,4.883333,0,0,0,0,0,0,1,2,2,3,6,4,8,8,11,20,31,31,39,56,61,85,127,161,188,203,250,297,351,411,477,477,571
200,Apeldoorn,Gelderland,52.216667,5.95,0,0,0,0,0,0,0,0,0,0,0,0,0,1,2,2,3,3,7,7,10,11,13,16,17,26,29,34,39,49,52,52,60
3,Appingedam,Groningen,53.316667,6.866667,0,0,0,0,0,0,0,0,0,0,0,0,0,0,0,0,0,0,0,0,0,0,0,0,0,0,0,0,0,1,1,1,1
202,Arnhem,Gelderland,51.983333,5.9166669999999995,0,0,0,0,0,0,0,0,1,1,3,2,2,3,4,4,4,7,7,8,9,10,13,15,16,20,23,25,34,46,52,52,63
106,Assen,Drenthe,52.983332999999995,6.55,0,0,0,0,0,0,0,0,0,0,0,0,0,0,0,0,0,0,0,0,0,0,1,1,2,4,5,5,7,8,10,10,12
743,Asten,Noord-Brabant,51.403056,5.746944,0,0,0,0,0,0,0,0,0,0,0,0,0,0,0,0,0,1,1,2,2,2,2,5,5,5,6,6,6,8,10,10,17
744,Baarle-Nassau,Noord-Brabant,51.45,4.933333,0,0,0,0,0,0,0,0,0,0,0,0,0,0,0,0,0,0,0,0,0,0,1,1,1,1,1,2,2,2,2,2,3
308,Baarn,Utrecht,52.216667,5.3,0,0,0,0,0,0,0,0,0,0,0,0,0,0,0,0,0,0,0,0,0,2,1,1,1,2,2,4,5,5,6,6,7
489,Barendrecht,Zuid-Holland,51.85,4.533333,0,0,0,0,0,0,0,0,0,0,0,0,0,0,1,1,1,3,3,3,3,4,5,9,10,13,15,16,19,21,28,28,30
203,Barneveld,Gelderland,52.133333,5.5833330000000005,0,0,0,0,0,0,0,0,0,0,0,0,0,0,0,0,0,2,3,4,5,6,8,8,9,10,12,13,13,17,19,19,22
888,Beek,Limburg,50.938889,5.796111,0,0,0,0,0,0,0,0,0,0,0,0,0,0,0,0,0,3,3,3,3,3,5,5,5,5,9,13,13,13,14,14,15
1954,Beekdaelen,Limburg,50.942889,5.886611,0,0,0,0,0,0,0,0,1,2,2,4,5,8,8,8,9,12,13,15,18,18,19,19,19,20,29,30,32,34,37,37,43
370,Beemster,Noord-Holland,52.55,4.928056,0,0,0,0,0,0,0,0,0,0,0,0,0,0,0,0,0,0,0,0,0,0,0,0,0,0,1,2,2,4,4,4,6
889,Beesel,Limburg,51.266667,6.033333,0,0,0,0,0,0,0,0,0,0,0,0,0,0,0,0,0,0,0,0,0,0,1,3,5,5,6,7,8,11,13,13,15
1945,Berg en Dal,Gelderland,51.783333,5.933333,0,0,0,0,0,0,0,0,0,0,0,0,1,3,3,5,6,6,10,14,14,18,20,25,30,33,35,37,43,44,53,53,69
1724,Bergeijk,Noord-Brabant,51.32,5.358889,0,0,0,0,0,0,0,0,0,0,0,0,0,1,1,1,1,1,1,1,1,1,1,1,1,3,5,10,11,13,14,14,14
893,Bergen (L.),Limburg,51.598889,6.033889,0,0,0,0,0,0,0,0,0,0,0,0,0,0,0,0,0,0,0,0,1,1,1,1,1,1,1,1,1,2,2,2,4
373,Bergen (NH.),Noord-Holland,52.67034399999999,4.705411,0,0,0,0,0,0,0,0,0,0,0,0,0,0,0,0,1,1,1,1,2,4,4,6,8,9,12,12,14,16,20,20,23
748,Bergen op Zoom,Noord-Brabant,51.5,4.283333,0,0,0,0,0,0,0,0,0,0,1,1,1,1,1,1,1,4,4,5,5,6,8,9,10,12,12,12,13,15,17,17,17
1859,Berkelland,Gelderland,52.116667,6.516667,0,0,0,0,0,0,0,0,0,0,0,0,0,0,0,0,0,0,0,0,0,1,1,1,1,2,2,2,2,2,2,2,5
1721,Bernheze,Noord-Brabant,51.683333000000005,5.516667,0,0,0,0,0,0,0,0,0,1,1,2,2,2,4,13,15,16,19,20,26,30,37,41,57,62,67,69,83,87,95,95,117
753,Best,Noord-Brabant,51.511111,5.3919440000000005,0,0,0,0,0,0,0,1,1,1,2,2,2,3,3,3,3,3,4,5,6,6,8,11,14,14,17,19,21,23,23,23,27
209,Beuningen,Gelderland,51.85,5.75,0,0,0,0,0,0,0,0,1,1,5,3,3,3,3,3,4,4,5,6,6,6,8,9,11,12,13,15,15,16,18,18,24
375,Beverwijk,Noord-Holland,52.483332999999995,4.65,0,0,0,0,0,0,1,2,2,3,4,4,4,4,5,5,5,5,5,6,6,6,6,6,7,7,11,11,12,13,17,17,22
310,De Bilt,Utrecht,52.1,5.183333,0,0,0,0,0,0,0,2,3,6,6,6,6,10,11,11,11,12,13,15,16,16,18,19,20,23,27,32,34,36,39,39,42
1728,Bladel,Noord-Brabant,51.366667,5.216667,0,0,0,0,0,0,0,0,0,0,0,0,0,0,0,0,1,1,1,1,2,3,6,7,11,12,14,15,15,15,18,18,21
376,Blaricum,Noord-Holland,52.271667,5.241667,0,0,0,0,0,0,1,1,1,1,1,1,1,1,1,1,1,1,1,1,2,2,3,4,4,4,4,5,6,6,6,6,6
377,Bloemendaal,Noord-Holland,52.4,4.616667,0,0,0,0,0,0,0,0,0,1,1,1,1,1,1,1,1,1,1,3,3,3,3,8,8,11,13,13,16,17,19,19,19
1901,Bodegraven-Reeuwijk,Zuid-Holland,52.061780999999996,4.726869000000001,0,0,0,0,0,0,0,0,0,0,0,0,0,0,1,1,1,1,1,1,1,1,1,3,5,5,5,5,8,9,10,10,12
755,Boekel,Noord-Brabant,51.6,5.6666669999999995,0,0,0,0,0,0,0,0,0,0,1,1,2,7,8,11,12,12,14,14,19,20,25,32,37,40,42,42,42,51,53,53,61
1681,Borger-Odoorn,Drenthe,52.85,6.85,0,0,0,0,0,0,0,0,0,0,0,0,0,0,0,0,0,0,0,0,0,0,0,0,0,0,0,0,0,1,1,1,2
147,Borne,Overijssel,52.3,6.75,0,0,0,0,0,0,0,1,1,2,3,3,3,3,2,3,3,3,3,3,3,3,3,4,5,7,8,11,12,13,15,15,21
654,Borsele,Zeeland,51.433333000000005,3.816667,0,0,0,0,0,0,0,0,0,0,0,0,0,1,1,1,1,1,2,2,2,3,3,3,3,3,4,5,6,7,7,7,7
756,Boxmeer,Noord-Brabant,51.648056,5.9438889999999995,0,0,0,0,0,0,0,0,0,0,0,0,0,0,0,1,1,1,1,1,2,2,5,6,7,7,9,9,10,13,17,17,25
757,Boxtel,Noord-Brabant,51.583333,5.3333330000000005,0,0,0,0,0,0,0,0,0,0,0,0,0,0,1,1,2,2,3,5,5,6,6,11,12,12,15,15,19,22,24,24,26
758,Breda,Noord-Brabant,51.583333,4.783333,0,0,0,0,0,0,0,0,2,2,15,19,27,32,42,53,64,71,86,96,105,113,121,133,140,161,167,181,201,215,227,227,245
501,Brielle,Zuid-Holland,51.883333,4.183333,0,0,0,0,0,0,0,0,0,0,0,0,0,0,0,0,0,0,0,0,0,1,1,1,1,1,1,1,2,5,10,10,11
1876,Bronckhorst,Gelderland,52.05,6.3,0,0,0,0,0,0,0,0,1,1,2,2,2,2,2,2,2,2,2,2,2,3,5,6,6,6,7,7,8,8,9,9,11
213,Brummen,Gelderland,52.1,6.1,0,0,0,0,0,0,0,0,0,0,0,0,0,0,0,0,0,0,0,0,0,1,1,1,1,4,4,4,4,5,5,5,8
899,Brunssum,Limburg,50.95,5.966667,0,0,0,0,0,0,0,0,0,0,0,0,0,0,0,0,0,0,0,2,4,4,6,6,6,8,17,20,22,24,25,25,31
312,Bunnik,Utrecht,52.066666999999995,5.2,0,0,0,0,0,0,0,0,0,0,0,0,0,0,0,0,0,0,0,0,0,1,2,3,3,4,6,8,9,9,10,10,10
313,Bunschoten,Utrecht,52.25,5.366667,0,0,0,0,0,0,0,0,0,0,0,0,0,0,0,0,0,0,0,0,0,0,0,0,0,0,1,3,3,3,4,4,6
214,Buren,Gelderland,51.910556,5.3333330000000005,0,0,0,0,0,0,0,0,0,0,0,0,0,0,1,2,2,2,4,4,4,5,5,5,5,5,6,7,7,7,7,7,9
502,Capelle aan den IJssel,Zuid-Holland,51.933333000000005,4.5833330000000005,0,0,0,0,0,0,0,0,0,0,0,0,0,0,0,0,0,0,0,1,1,2,3,3,7,7,13,23,26,31,41,41,44
383,Castricum,Noord-Holland,52.55,4.6666669999999995,0,0,0,0,0,0,0,0,0,0,0,0,0,0,0,0,4,5,5,5,5,6,6,7,8,8,10,10,13,18,19,19,24
109,Coevorden,Drenthe,52.65,6.733333,0,0,0,1,1,2,2,3,3,3,7,9,11,11,11,11,11,11,11,11,12,12,13,14,14,14,15,15,17,17,20,20,20
1706,Cranendonck,Noord-Brabant,51.285,5.588056,0,0,0,0,0,0,0,0,0,0,0,0,0,1,1,2,2,2,2,5,6,6,8,11,13,19,23,25,31,42,42,42,58
1684,Cuijk,Noord-Brabant,51.726944,5.878889,0,0,0,0,0,0,0,0,0,0,0,0,0,1,1,2,2,2,2,2,2,4,4,4,4,5,6,8,8,8,10,10,14
216,Culemborg,Gelderland,51.95,5.233333,0,0,0,0,0,0,0,1,1,1,1,1,1,1,1,2,2,2,2,4,4,4,4,5,5,5,8,8,14,14,16,16,20
148,Dalfsen,Overijssel,52.5,6.25,0,0,0,0,0,0,0,0,0,0,0,0,0,0,0,0,0,1,1,1,1,1,4,5,8,9,11,12,13,14,15,15,16
1891,Dantumadiel,Friesland,53.283333,5.983333,0,0,0,0,0,0,0,0,0,0,0,0,0,0,0,0,0,0,0,0,0,0,0,0,0,0,0,0,1,1,1,1,3
503,Delft,Zuid-Holland,52.011111,4.3575,0,0,1,1,1,1,1,1,1,1,1,1,1,1,1,2,2,2,2,2,4,5,9,11,12,16,17,21,25,27,29,29,34
10,Delfzijl,Groningen,53.333332999999996,6.9166669999999995,0,0,0,0,0,0,0,0,0,0,0,0,0,0,0,0,0,0,0,0,0,0,0,0,0,1,1,1,2,4,7,7,7
762,Deurne,Noord-Brabant,51.463889,5.795,0,0,0,0,0,0,0,0,0,0,1,1,1,3,3,3,3,4,5,8,8,10,13,19,22,22,25,30,35,42,46,46,58
150,Deventer,Overijssel,52.266667,6.2,0,0,0,0,0,0,0,0,0,0,0,0,0,0,0,0,0,1,2,4,5,5,7,16,16,17,20,26,30,33,45,45,53
384,Diemen,Noord-Holland,52.343889000000004,4.963056,0,1,3,3,3,3,2,2,2,2,0,2,2,2,2,2,2,2,2,2,2,2,3,3,4,4,4,6,6,7,7,7,9
1774,Dinkelland,Overijssel,52.374829999999996,7.0050300000000005,0,0,0,0,0,0,0,0,0,1,2,2,2,2,1,3,4,4,5,5,6,8,9,13,14,15,17,20,25,28,30,30,34
221,Doesburg,Gelderland,52.016667,6.133333,0,0,0,0,0,0,0,0,0,0,0,0,0,0,0,0,0,1,1,1,1,1,3,3,4,4,4,5,5,6,6,6,6
222,Doetinchem,Gelderland,51.966667,6.283333,0,0,0,0,0,0,0,0,0,0,0,0,0,0,0,0,0,0,0,0,0,3,4,5,5,6,8,10,17,17,18,18,24
766,Dongen,Noord-Brabant,51.616667,4.933333,0,0,0,0,0,0,0,1,1,2,3,3,3,4,4,4,5,5,5,5,5,5,2,2,2,2,4,6,6,10,12,12,21
505,Dordrecht,Zuid-Holland,51.8,4.6666669999999995,0,0,0,0,0,0,0,0,0,0,0,0,0,0,0,1,1,1,1,4,4,8,11,12,13,17,23,26,28,32,36,36,46
498,Drechterland,Noord-Holland,52.683333,5.1666669999999995,0,0,0,0,0,0,0,0,0,0,0,0,0,0,0,0,0,0,0,0,0,0,0,2,2,2,3,3,4,4,5,5,7
1719,Drimmelen,Noord-Brabant,51.694444,4.7972220000000005,0,0,0,0,0,0,0,0,0,0,0,0,0,1,3,5,5,5,7,11,12,13,13,14,14,16,17,20,21,24,26,26,30
303,Dronten,Flevoland,52.516667000000005,5.716667,0,0,0,0,0,0,0,0,0,0,0,0,0,0,0,2,3,6,7,7,8,9,10,11,10,11,11,11,11,11,11,11,13
225,Druten,Gelderland,51.883333,5.6,0,0,0,0,0,0,0,0,0,0,0,0,0,0,0,1,3,5,5,5,5,5,5,5,5,6,6,7,7,11,13,13,18
226,Duiven,Gelderland,51.95,6.016667,0,0,0,0,0,0,0,0,0,0,0,0,0,0,0,1,1,1,1,1,2,2,2,2,2,2,2,2,3,4,6,6,7
1711,Echt-Susteren,Limburg,51.083333,5.866667,0,0,0,0,0,0,0,0,0,0,0,0,0,0,0,0,0,0,0,2,6,6,7,11,12,14,15,20,23,25,28,28,32
385,Edam-Volendam,Noord-Holland,52.501943999999995,5.061111,0,0,0,0,0,0,0,0,0,0,0,0,0,0,0,0,0,0,0,0,0,3,3,4,5,6,7,9,10,14,14,14,16
228,Ede,Gelderland,52.05,5.6666669999999995,0,0,0,0,0,0,0,0,0,0,1,0,0,0,0,0,0,1,2,2,5,5,9,13,16,21,22,26,33,37,46,46,50
317,Eemnes,Utrecht,52.253889,5.256944,0,0,0,0,0,0,0,0,0,0,0,0,0,0,0,0,0,0,0,0,1,1,1,1,1,1,1,1,1,1,1,1,2
770,Eersel,Noord-Brabant,51.356944,5.315,0,0,0,0,0,0,0,0,0,0,0,0,0,0,1,1,2,2,2,3,4,4,6,7,9,10,13,13,14,15,17,17,23
1903,Eijsden-Margraten,Limburg,50.783333,5.75,0,0,0,0,0,0,0,0,0,0,0,0,0,0,0,0,1,3,4,4,4,4,6,6,6,7,15,20,26,32,43,43,53
772,Eindhoven,Noord-Brabant,51.433333000000005,5.466667,0,0,0,0,0,1,1,3,4,4,6,7,8,8,8,12,13,21,21,22,23,24,28,35,46,55,68,80,93,113,128,128,143
230,Elburg,Gelderland,52.45,5.85,0,0,0,0,0,0,0,0,0,0,0,0,0,0,0,1,1,1,1,1,1,1,2,2,3,4,4,5,6,9,11,11,18
114,Emmen,Drenthe,52.783333,6.883333,0,0,0,0,0,0,0,0,0,0,1,1,1,1,1,1,1,1,1,1,2,3,4,4,4,6,7,8,8,10,12,12,15
388,Enkhuizen,Noord-Holland,52.7,5.3,0,0,0,0,0,0,0,0,0,0,0,0,0,0,0,0,0,0,1,1,1,5,5,6,7,8,10,13,15,17,17,17,18
153,Enschede,Overijssel,52.216667,6.883333,0,0,0,0,0,0,0,0,0,0,0,0,0,1,3,3,3,3,3,3,4,7,8,16,18,20,20,26,34,45,49,49,55
232,Epe,Gelderland,52.333333,5.9166669999999995,0,0,0,0,0,0,0,0,0,0,0,0,0,0,0,0,0,0,2,2,4,4,4,6,8,10,13,15,16,18,20,20,33
233,Ermelo,Gelderland,52.283333,5.6666669999999995,0,0,0,0,0,0,0,0,0,0,0,0,1,1,3,4,5,7,8,8,8,8,9,11,13,13,14,17,17,18,19,19,23
777,Etten-Leur,Noord-Brabant,51.571111,4.636111,0,0,0,0,0,0,0,0,0,0,0,1,3,5,5,6,7,8,10,12,13,14,15,18,20,24,24,31,37,40,50,50,54
1940,De Fryske Marren,Friesland,52.933333,5.7,0,0,0,0,0,0,0,0,0,0,0,0,0,0,1,2,2,3,3,3,5,5,6,8,8,8,8,9,12,12,17,17,22
779,Geertruidenberg,Noord-Brabant,51.7,4.85,0,0,0,0,0,0,0,0,0,0,0,0,0,1,1,1,1,1,3,5,7,7,7,7,8,10,10,11,11,11,12,12,15
1771,Geldrop-Mierlo,Noord-Brabant,51.416667,5.55,0,0,0,0,0,0,0,0,0,0,0,0,0,0,1,2,2,2,3,3,3,4,4,6,6,8,9,15,16,20,22,22,26
1652,Gemert-Bakel,Noord-Brabant,51.531110999999996,5.718889,0,0,0,0,0,0,0,1,1,1,1,1,2,4,7,11,13,16,20,25,26,31,36,42,50,56,64,68,71,76,82,82,94
907,Gennep,Limburg,51.683333000000005,5.966667,0,0,0,0,0,0,0,0,0,0,0,0,0,0,0,1,1,1,1,1,2,4,4,5,7,7,7,7,8,9,14,14,19
784,Gilze en Rijen,Noord-Brabant,51.561111,4.933056,0,0,0,0,0,0,0,0,0,0,0,0,0,0,0,1,1,1,1,1,3,5,7,7,12,13,16,18,19,22,25,25,29
1924,Goeree-Overflakkee,Zuid-Holland,51.75,4.116667,0,0,0,0,0,0,0,0,0,0,0,0,0,0,0,1,1,2,4,5,7,8,14,16,25,36,43,44,56,77,92,92,112
664,Goes,Zeeland,51.516667,3.833333,0,0,0,0,0,0,0,0,0,0,0,0,1,2,2,2,2,2,2,2,3,3,3,3,3,3,4,4,7,12,12,12,17
785,Goirle,Noord-Brabant,51.52,5.066944,0,0,0,0,0,0,0,0,0,0,1,4,4,6,6,6,6,6,9,9,9,11,11,12,13,13,16,18,21,24,26,26,34
1942,Gooise Meren,Noord-Holland,52.266667,5.1666669999999995,0,0,0,0,0,0,1,1,2,2,2,2,2,3,3,3,4,4,4,9,9,10,10,11,11,11,12,18,20,24,25,25,26
512,Gorinchem,Zuid-Holland,51.833333,4.966667,0,0,0,0,0,0,0,0,0,0,0,0,0,0,0,0,0,0,0,0,0,1,0,0,2,2,4,8,9,13,14,14,25
513,Gouda,Zuid-Holland,52.016667,4.7,0,0,0,0,0,0,0,0,0,0,0,0,1,2,2,2,2,3,4,5,7,9,10,12,15,16,17,18,25,31,35,35,43
786,Grave,Noord-Brabant,51.758889,5.738055999999999,0,0,0,0,0,0,0,0,0,0,0,0,0,0,0,0,0,0,0,0,1,2,4,6,10,11,11,11,14,16,19,19,25
518,'s-Gravenhage,Zuid-Holland,52.083333,4.3,0,0,0,0,0,0,0,0,3,2,2,2,3,7,7,8,9,10,14,17,21,27,36,44,47,53,63,81,103,124,161,161,182
14,Groningen,Groningen,53.216667,6.566667,0,0,0,0,0,0,0,0,0,0,0,0,0,0,2,3,3,6,7,7,11,23,28,39,46,53,53,58,76,80,85,85,88
1729,Gulpen-Wittem,Limburg,50.816111,5.8980559999999995,0,0,0,0,0,0,0,0,0,0,0,0,0,0,0,0,0,1,2,2,2,2,2,2,2,2,4,5,5,7,8,8,11
158,Haaksbergen,Overijssel,52.15,6.733333,0,0,0,0,0,0,0,0,0,0,0,0,0,0,0,0,0,1,1,1,1,1,1,1,3,3,3,3,4,6,9,9,10
788,Haaren,Noord-Brabant,51.6,5.216667,0,0,0,0,0,0,0,0,0,0,0,2,2,6,6,7,7,7,7,7,9,9,9,10,12,12,12,12,14,18,21,21,23
392,Haarlem,Noord-Holland,52.383333,4.633333,0,0,0,0,1,1,1,1,1,1,2,2,1,1,1,4,4,4,6,7,7,10,17,25,27,29,41,46,54,66,73,73,86
394,Haarlemmermeer,Noord-Holland,52.316666999999995,4.683333,0,0,0,0,0,0,0,0,0,0,0,0,0,0,0,0,0,1,2,4,4,5,8,12,16,18,23,23,30,40,45,45,61
1655,Halderberge,Noord-Brabant,51.586944,4.5169440000000005,0,0,0,0,0,0,0,0,0,0,0,0,0,0,0,0,0,0,2,2,2,2,2,5,7,7,8,8,8,10,12,12,14
160,Hardenberg,Overijssel,52.566667,6.6,0,0,0,0,0,0,0,0,0,0,0,0,0,0,0,0,0,0,0,0,0,0,1,3,3,4,6,7,9,11,16,16,21
243,Harderwijk,Gelderland,52.35,5.616667,0,0,0,0,0,0,0,0,0,0,0,0,0,0,2,2,2,2,4,4,5,5,5,5,6,8,9,13,14,18,18,18,25
523,Hardinxveld-Giessendam,Zuid-Holland,51.833333,4.8333330000000005,0,0,0,0,0,0,1,2,4,4,4,4,5,5,5,5,5,5,5,5,5,5,6,6,6,6,6,6,6,7,7,7,10
72,Harlingen,Friesland,53.3,5.683333,0,0,0,0,0,0,0,0,0,0,0,0,0,0,0,0,0,0,1,1,1,1,1,3,3,3,3,3,3,3,3,3,4
244,Hattem,Gelderland,52.483332999999995,6.066667,0,0,0,0,0,0,0,0,0,0,0,0,0,0,0,0,0,0,0,0,0,0,0,1,1,1,2,3,5,7,7,7,12
396,Heemskerk,Noord-Holland,52.510833,4.672778,0,0,0,0,0,0,0,0,0,0,0,0,0,0,0,1,1,1,2,2,2,3,5,5,5,5,7,9,10,16,19,19,27
397,Heemstede,Noord-Holland,52.35,4.616667,0,0,0,0,0,0,0,0,0,0,1,1,1,1,2,2,2,2,5,5,5,5,7,11,11,13,16,17,21,24,27,27,32
246,Heerde,Gelderland,52.4,6.05,0,0,0,0,0,0,0,0,0,0,0,0,0,0,0,0,0,0,2,3,3,4,5,9,9,13,15,19,24,27,28,28,40
74,Heerenveen,Friesland,52.966667,6.05,0,0,0,0,0,0,0,0,0,0,0,0,0,0,0,0,0,0,0,0,0,0,1,2,2,3,3,3,4,5,7,7,9
398,Heerhugowaard,Noord-Holland,52.666667000000004,4.85,0,0,0,0,0,0,0,0,0,0,0,0,0,0,0,0,0,1,1,1,2,2,3,5,8,10,15,16,19,20,23,23,31
917,Heerlen,Limburg,50.886389,5.9775,0,0,0,0,0,0,0,0,0,0,0,0,0,1,2,2,4,5,6,8,14,15,18,19,24,29,46,53,63,68,75,75,87
1658,Heeze-Leende,Noord-Brabant,51.366944000000004,5.558056,0,0,0,0,0,0,0,0,0,0,0,0,0,1,1,1,1,1,2,3,4,4,4,4,7,7,7,10,10,12,12,12,16
399,Heiloo,Noord-Holland,52.601110999999996,4.701944,0,0,0,0,0,0,0,0,0,0,0,0,0,0,0,2,2,2,3,3,3,3,3,4,6,6,8,9,10,13,13,13,17
400,Den Helder,Noord-Holland,52.95,4.766667,0,0,0,0,0,0,0,0,0,0,0,0,0,1,1,1,1,1,1,1,1,2,2,3,3,4,5,5,6,9,9,9,11
163,Hellendoorn,Overijssel,52.35,6.45,0,0,0,0,0,0,0,0,0,1,2,2,2,2,2,2,2,2,2,2,2,2,2,3,4,5,6,7,7,8,10,10,14
530,Hellevoetsluis,Zuid-Holland,51.833333,4.133333,0,0,0,0,0,0,0,0,0,0,0,0,0,0,1,1,1,1,1,1,1,1,4,4,4,5,5,5,7,10,15,15,15
794,Helmond,Noord-Brabant,51.483333,5.65,0,0,0,0,1,1,4,4,4,4,5,7,11,12,14,16,17,17,17,19,20,22,26,32,38,49,55,63,66,75,91,91,105
531,Hendrik-Ido-Ambacht,Zuid-Holland,51.85,4.633333,0,0,0,0,0,0,0,0,0,0,0,0,0,0,0,0,0,0,0,0,0,0,0,0,1,2,2,3,5,5,5,5,6
164,Hengelo,Overijssel,52.266667,6.783333,0,0,0,0,0,0,0,0,0,0,0,0,0,0,0,0,0,0,3,3,4,4,5,13,15,15,16,17,21,23,25,25,40
796,'s-Hertogenbosch,Noord-Brabant,51.683333000000005,5.3,0,0,0,0,0,0,0,0,0,2,2,3,4,5,8,11,14,14,20,24,30,35,38,45,55,60,67,75,87,108,117,117,150
252,Heumen,Gelderland,51.783333,5.866667,0,0,0,0,0,0,0,0,0,0,0,0,0,0,0,0,0,2,2,3,5,6,7,7,7,9,11,12,15,15,16,16,20
797,Heusden,Noord-Brabant,51.7,5.1666669999999995,0,0,0,0,0,0,0,0,0,1,1,1,1,2,2,4,4,4,4,4,5,6,7,11,15,16,19,20,25,37,39,39,46
534,Hillegom,Zuid-Holland,52.3,4.5833330000000005,0,0,0,0,0,0,0,0,0,0,0,0,0,0,0,0,0,0,0,0,1,1,2,2,2,2,3,3,3,3,4,4,6
798,Hilvarenbeek,Noord-Brabant,51.486111,5.136944000000001,0,0,0,0,0,0,0,0,0,0,0,0,0,1,3,5,5,5,4,4,4,4,4,5,6,7,8,10,10,10,12,12,13
402,Hilversum,Noord-Holland,52.216667,5.183333,0,0,0,0,0,0,0,0,0,0,0,0,0,0,0,0,0,0,0,3,3,3,5,7,7,7,7,16,18,24,24,24,25
1963,Hoeksche Waard,Zuid-Holland,51.766667,4.466667,0,0,0,0,0,0,1,1,1,2,1,2,2,2,1,1,1,2,4,6,8,12,17,17,21,23,31,36,43,51,55,55,62
1735,Hof van Twente,Overijssel,52.25,6.7,0,0,0,0,0,0,0,0,0,0,0,0,0,0,0,0,0,1,1,1,3,3,3,4,5,5,5,6,8,14,17,17,18
1966,Het Hogeland,Groningen,53.4,6.6666669999999995,0,0,0,0,0,0,0,0,0,0,0,0,0,0,0,0,0,0,0,0,0,0,0,0,0,1,1,4,6,7,7,7,9
1911,Hollands Kroon,Noord-Holland,52.87805600000001,4.811389,0,0,0,0,0,0,0,0,0,0,0,0,0,0,0,0,0,0,0,0,1,3,3,6,7,8,10,10,14,17,18,18,25
118,Hoogeveen,Drenthe,52.066666999999995,6.466667,0,0,0,0,0,0,0,0,0,0,0,0,0,0,1,1,2,2,2,2,3,3,4,5,5,5,6,7,7,8,9,9,13
405,Hoorn,Noord-Holland,52.63333299999999,5.05,0,0,0,0,0,0,0,0,0,0,0,0,0,0,0,0,0,0,1,1,1,2,3,8,9,11,12,14,15,17,20,20,23
1507,Horst aan de Maas,Limburg,51.436944,6.106111,0,0,0,0,0,0,0,0,0,0,0,0,0,0,0,2,3,3,5,8,8,10,11,13,13,16,17,18,20,25,27,27,34
321,Houten,Utrecht,52.033333,5.1666669999999995,0,0,0,0,1,1,1,9,9,13,13,13,13,13,13,13,13,13,13,13,14,17,17,19,23,25,29,37,43,47,52,52,58
406,Huizen,Noord-Holland,52.298889,5.253056,0,0,0,0,0,0,0,0,0,0,1,1,1,2,1,1,1,1,1,1,2,3,3,3,3,3,3,7,8,13,13,13,13
677,Hulst,Zeeland,51.316666999999995,4.05,0,0,0,0,0,0,0,0,0,0,0,0,0,0,0,0,0,0,0,0,0,0,0,0,0,0,0,1,1,2,3,3,6
353,IJsselstein,Utrecht,52.016667,5.05,0,0,0,0,0,0,0,0,0,0,0,1,1,1,1,1,1,2,4,6,7,8,8,11,13,16,16,18,23,26,31,31,38
1884,Kaag en Braassem,Zuid-Holland,52.203056,4.631111,0,0,0,0,0,0,0,0,0,0,0,0,0,0,0,0,0,0,0,0,0,1,1,1,2,2,4,5,5,5,6,6,8
166,Kampen,Overijssel,52.55,5.9,0,0,0,0,0,0,0,0,0,0,0,0,0,0,0,0,0,0,0,1,2,2,5,12,14,17,20,30,41,45,55,55,69
678,Kapelle,Zeeland,51.5,3.95,0,0,0,0,0,0,0,0,0,0,0,0,0,0,0,0,0,0,0,1,2,2,2,2,2,2,2,2,2,2,2,2,2
537,Katwijk,Zuid-Holland,52.2,4.4,0,0,0,0,0,0,0,0,0,0,0,0,0,0,1,1,1,1,1,1,2,2,3,5,6,6,6,7,10,15,19,19,24
928,Kerkrade,Limburg,50.864722,6.060556,0,0,0,0,0,0,0,0,0,0,0,0,0,0,0,0,1,2,2,3,3,3,5,6,8,8,17,21,26,28,32,32,36
1598,Koggenland,Noord-Holland,52.63333299999999,4.95,0,0,0,0,0,0,0,0,0,0,0,0,0,0,0,0,1,1,1,1,1,1,1,1,2,4,4,5,6,6,9,9,10
542,Krimpen aan den IJssel,Zuid-Holland,51.916667,4.6,0,0,0,0,0,0,0,0,0,0,0,0,0,0,1,1,1,1,1,1,1,2,2,2,3,3,3,6,7,7,12,12,15
1931,Krimpenerwaard,Zuid-Holland,51.983333,4.783333,0,0,0,0,0,0,0,0,0,0,1,1,1,3,3,3,3,4,4,4,4,5,7,9,11,11,12,16,19,24,30,30,38
1659,Laarbeek,Noord-Brabant,51.516667,5.616667,0,0,0,0,0,0,0,0,0,0,0,0,0,0,0,1,1,1,1,1,2,4,6,8,11,13,17,19,24,33,39,39,45
1685,Landerd,Noord-Brabant,51.716667,5.65,0,0,0,0,0,0,0,0,0,0,0,2,1,2,2,4,5,5,10,14,16,18,20,20,22,23,25,25,34,42,44,44,50
882,Landgraaf,Limburg,50.908056,6.03,0,0,0,0,0,0,0,0,0,0,0,0,0,0,1,2,4,4,4,4,7,7,7,9,10,11,18,21,25,28,29,29,32
415,Landsmeer,Noord-Holland,52.42916700000001,4.913611,0,0,0,0,0,0,0,0,0,1,0,0,0,0,2,2,2,3,3,3,3,3,4,4,5,5,6,6,7,7,7,7,8
416,Langedijk,Noord-Holland,52.693889,4.793889,0,0,0,0,0,0,0,0,0,0,0,0,0,1,1,3,3,4,4,4,4,4,4,4,4,5,12,12,13,14,14,14,16
1621,Lansingerland,Zuid-Holland,51.99289,4.4783,0,0,0,0,0,0,0,0,1,2,1,3,4,4,4,4,4,5,5,7,10,13,14,16,20,20,24,25,28,34,45,45,49
417,Laren,Noord-Holland,52.254444,5.231667,0,0,0,0,0,0,0,0,0,0,0,0,0,0,0,0,0,0,0,0,0,0,0,0,0,0,3,4,5,8,8,8,8
80,Leeuwarden,Friesland,53.2,5.783333,0,0,0,0,0,0,0,0,0,0,0,0,0,0,1,1,1,1,2,3,4,5,5,8,8,10,10,12,15,19,20,20,23
546,Leiden,Zuid-Holland,52.15,4.483333,0,0,0,0,0,0,0,0,0,0,0,0,1,1,1,4,4,4,8,8,11,12,14,16,16,16,20,21,28,30,35,35,39
547,Leiderdorp,Zuid-Holland,52.15,4.533333,0,0,0,0,0,0,0,0,0,0,0,0,0,0,0,0,0,0,1,1,2,2,2,2,2,2,2,3,4,4,5,5,7
1916,Leidschendam-Voorburg,Zuid-Holland,52.083333,4.4,0,0,0,0,0,0,0,0,0,1,1,1,2,2,2,3,3,3,4,5,6,6,7,9,10,10,13,14,17,18,21,21,24
995,Lelystad,Flevoland,52.5,5.466667,0,0,0,0,0,0,0,0,0,0,0,0,0,1,1,3,5,7,8,10,12,13,15,15,19,21,24,26,27,29,31,31,34
1640,Leudal,Limburg,51.25,5.9,0,0,0,0,0,0,0,0,0,0,0,1,2,3,4,4,6,6,7,8,11,13,16,20,22,23,26,29,32,37,41,41,52
327,Leusden,Utrecht,52.133333,5.4166669999999995,0,0,0,0,0,0,0,0,0,0,0,0,0,0,0,0,0,0,1,1,3,4,4,6,6,7,9,13,13,16,17,17,19
1705,Lingewaard,Gelderland,51.9,5.9,0,0,0,0,0,0,0,0,1,2,2,2,2,2,2,2,3,3,3,3,4,5,6,6,9,10,11,14,14,22,25,25,28
553,Lisse,Zuid-Holland,52.25,4.55,0,0,0,0,0,0,0,0,0,0,0,0,0,0,0,0,0,0,0,0,0,0,0,0,1,1,1,2,2,3,3,3,4
262,Lochem,Gelderland,52.15,6.4,0,0,0,0,0,0,0,0,0,0,0,0,0,0,0,0,0,0,0,0,1,1,2,2,2,2,2,6,8,11,14,14,14
809,Loon op Zand,Noord-Brabant,51.628056,5.076111,1,1,3,3,3,4,5,5,5,7,6,7,7,7,6,7,7,7,7,8,9,11,13,14,16,17,20,20,21,25,29,29,31
331,Lopik,Utrecht,51.983333,4.95,0,0,0,0,0,0,0,0,0,0,0,0,0,0,0,0,0,0,1,2,3,3,3,4,6,9,10,11,12,13,13,13,17
24,Loppersum,Groningen,53.316667,6.733333,0,0,0,0,0,0,0,0,0,0,0,0,0,0,0,0,0,0,0,0,0,0,0,0,0,0,0,0,1,1,1,1,1
168,Losser,Overijssel,52.25,7.0,0,0,0,0,0,0,0,0,0,0,0,0,0,0,0,0,0,0,0,0,0,0,0,1,1,1,1,1,1,1,1,1,3
263,Maasdriel,Gelderland,51.766667,5.3333330000000005,0,0,0,0,0,0,0,0,0,0,1,1,1,0,0,0,0,0,0,1,1,1,2,2,2,2,3,3,5,6,8,8,12
1641,Maasgouw,Limburg,51.15,5.883333,0,0,0,0,0,0,0,0,0,0,0,0,0,0,0,0,1,2,2,3,4,5,5,7,8,9,9,10,12,13,13,13,13
556,Maassluis,Zuid-Holland,51.933333000000005,4.25,0,0,0,0,0,0,0,0,0,0,0,0,0,0,0,0,1,1,1,1,2,2,2,3,5,6,7,7,8,11,14,14,15
935,Maastricht,Limburg,50.85,5.683333,0,0,0,0,0,0,0,0,2,3,4,6,7,8,8,10,16,21,24,33,41,42,56,57,59,60,94,112,118,126,162,162,185
420,Medemblik,Noord-Holland,52.743889,5.061111,0,0,0,0,0,0,0,0,0,0,0,0,0,0,0,0,0,0,0,0,0,0,0,1,2,4,4,4,6,8,14,14,22
938,Meerssen,Limburg,50.886111,5.751944,0,0,0,0,0,0,0,0,0,0,0,0,0,0,0,0,0,0,1,1,2,2,2,2,3,3,8,8,8,8,10,10,13
1948,Meierijstad,Noord-Brabant,51.583333,5.483333,0,0,0,0,0,0,0,0,0,1,4,10,11,13,18,25,30,34,42,49,60,72,81,95,119,127,139,149,168,195,207,207,243
119,Meppel,Drenthe,52.7,6.183333,0,0,0,0,0,0,0,0,0,0,0,0,0,0,0,0,0,0,0,0,0,0,1,1,1,3,3,3,3,4,6,6,8
687,Middelburg,Zeeland,51.5,3.6166669999999996,0,0,0,0,0,0,0,0,0,0,0,0,0,0,0,0,0,0,1,1,2,3,3,4,5,6,6,7,8,9,10,10,14
1842,Midden-Delfland,Zuid-Holland,51.966667,4.3,0,0,0,0,0,0,0,0,0,0,0,0,0,0,0,0,0,0,0,0,0,1,2,2,2,2,2,2,2,3,4,4,4
1731,Midden-Drenthe,Drenthe,52.85,6.5,0,0,0,0,0,0,0,0,0,0,0,0,0,0,0,0,0,0,0,0,0,1,1,1,1,1,1,1,2,2,4,4,5
1952,Midden-Groningen,Groningen,53.15,6.75,0,0,0,0,0,0,0,0,0,0,0,0,0,0,0,0,0,1,1,1,2,2,2,2,2,2,2,2,5,5,6,6,8
815,Mill en Sint Hubert,Noord-Brabant,51.681111,5.795,0,0,0,0,0,0,0,0,0,0,0,0,0,0,0,0,0,1,1,1,1,2,2,2,2,2,5,5,5,7,9,9,11
1709,Moerdijk,Noord-Brabant,51.655,4.533056,0,0,0,0,0,0,0,0,0,0,0,0,0,0,0,1,1,1,1,1,1,2,3,3,3,3,4,5,5,6,10,10,12
1978,Molenlanden,Zuid-Holland,51.85,4.8,0,0,0,0,0,0,0,0,0,0,0,0,0,0,0,0,0,1,2,3,7,9,11,11,11,11,13,16,16,17,18,18,23
1955,Montferland,Gelderland,51.933333000000005,6.15,0,0,0,0,0,0,0,0,0,0,0,0,0,0,0,0,0,0,0,0,1,1,1,1,2,3,3,3,4,5,6,6,10
335,Montfoort,Utrecht,52.033333,4.95,0,0,0,0,0,0,0,0,0,0,0,0,0,0,0,0,0,0,0,0,0,0,0,0,0,2,3,5,9,11,12,12,15
944,Mook en Middelaar,Limburg,51.753056,5.881944,0,0,0,0,0,0,0,0,0,0,0,0,0,0,0,0,0,0,0,0,0,1,1,1,1,3,5,5,5,5,8,8,8
1740,Neder-Betuwe,Gelderland,51.933333000000005,5.633333,0,0,0,0,0,0,0,0,0,0,0,1,1,1,1,3,3,4,4,4,4,4,5,5,9,9,11,11,13,16,20,20,33
946,Nederweert,Limburg,51.283333,5.75,0,0,0,0,0,0,0,0,0,0,0,0,0,0,0,1,3,3,3,5,7,7,7,7,8,9,11,14,18,21,24,24,27
356,Nieuwegein,Utrecht,52.031110999999996,5.091944,0,0,0,0,0,0,0,0,0,0,0,0,0,0,0,0,0,1,1,3,4,6,8,9,9,11,11,12,15,17,25,25,33
569,Nieuwkoop,Zuid-Holland,52.15,4.8,0,0,0,0,0,0,0,0,0,0,0,0,0,0,1,1,1,1,1,1,1,1,1,2,3,3,4,6,6,7,8,8,10
267,Nijkerk,Gelderland,52.2,5.483333,0,0,0,0,0,0,0,0,0,0,0,0,0,0,0,0,0,0,1,2,2,2,2,4,4,7,8,8,12,15,18,18,18
268,Nijmegen,Gelderland,51.833333,5.866667,0,0,0,0,0,0,0,0,1,2,2,3,3,4,6,8,9,12,17,31,41,48,55,60,68,79,93,108,122,132,149,149,197
1930,Nissewaard,Zuid-Holland,51.833333,4.3,0,0,0,0,0,0,0,0,0,0,0,0,0,0,1,1,1,1,1,3,4,7,11,12,15,15,17,19,23,28,37,37,40
1970,Noardeast-Fryslân,Friesland,53.316667,5.983333,0,0,0,0,0,0,0,0,0,0,0,0,0,0,0,0,0,0,0,0,0,1,1,1,1,2,3,3,3,4,4,4,6
1695,Noord-Beveland,Zeeland,51.583333,3.733333,0,0,0,0,0,0,0,0,0,0,0,0,0,0,0,0,0,0,0,0,0,0,0,0,0,0,1,2,2,2,2,2,2
1699,Noordenveld,Drenthe,53.13333299999999,6.4166669999999995,0,0,0,0,0,0,0,0,0,0,0,0,0,0,0,0,0,0,1,1,1,1,1,1,1,1,1,1,3,3,3,3,5
171,Noordoostpolder,Flevoland,52.716667,5.7,0,0,0,0,0,0,0,0,0,0,0,0,0,0,0,0,2,2,2,2,2,2,2,3,3,3,4,5,8,10,10,10,11
575,Noordwijk,Zuid-Holland,52.25,4.433333,0,0,0,0,0,0,0,0,0,0,0,2,2,2,2,2,2,2,2,2,2,3,2,3,6,6,6,7,8,10,15,15,17
820,"Nuenen, Gerwen en Nederwetten",Noord-Brabant,51.486944,5.526111,0,0,0,0,0,0,0,0,0,0,0,0,1,1,1,1,1,1,1,1,1,1,1,1,3,4,4,8,10,11,13,13,16
302,Nunspeet,Gelderland,52.333333,5.783333,0,0,0,0,0,0,0,0,0,0,0,0,0,0,0,1,1,1,2,2,3,3,4,9,13,17,22,29,31,39,43,43,52
579,Oegstgeest,Zuid-Holland,52.183333000000005,4.466667,0,0,0,0,0,0,0,0,0,1,1,1,1,2,2,2,4,4,4,4,4,5,6,7,7,7,8,9,9,12,13,13,15
823,Oirschot,Noord-Brabant,51.505,5.313056,0,0,0,0,0,0,0,0,0,0,0,0,0,0,0,0,0,0,1,1,1,1,1,1,3,3,4,6,8,10,11,11,14
824,Oisterwijk,Noord-Brabant,51.583056,5.2,0,0,0,0,0,0,0,0,1,3,3,3,3,4,5,6,6,6,9,10,10,10,12,15,16,16,16,18,21,23,24,24,27
1895,Oldambt,Groningen,53.2,7.0833330000000005,0,0,0,0,0,0,0,0,0,0,0,0,0,0,0,0,0,0,0,0,0,0,0,0,0,0,0,0,0,0,2,2,2
269,Oldebroek,Gelderland,52.466667,5.9166669999999995,0,0,0,0,0,0,0,0,0,0,0,0,0,0,0,1,1,1,2,2,5,5,5,6,7,7,8,12,16,19,22,22,30
173,Oldenzaal,Overijssel,52.3,6.9166669999999995,0,0,0,0,0,0,0,0,0,0,0,0,0,0,0,0,1,1,1,1,2,3,5,6,6,6,8,13,15,17,18,18,22
1773,Olst-Wijhe,Overijssel,52.333333,6.1,0,0,0,0,0,0,0,0,0,0,0,0,0,0,0,0,0,0,0,0,0,0,0,2,2,2,4,6,6,6,6,6,9
175,Ommen,Overijssel,52.516667000000005,6.4166669999999995,0,0,0,0,0,0,0,0,0,0,0,0,0,0,0,0,1,1,1,1,2,2,3,4,4,6,6,7,7,7,10,10,10
1586,Oost Gelre,Gelderland,51.983333,6.5833330000000005,0,0,0,0,0,0,0,0,0,0,0,0,0,0,0,0,0,0,0,0,0,0,1,2,2,2,6,6,6,7,8,8,11
826,Oosterhout,Noord-Brabant,51.65,4.85,0,0,0,0,0,0,0,0,0,0,0,0,0,0,1,3,4,5,6,8,9,9,12,13,16,22,23,26,29,31,36,36,44
85,Ooststellingwerf,Friesland,53.0,6.283333,0,0,0,0,0,0,0,0,0,0,0,0,0,0,0,0,0,0,0,0,0,0,0,0,0,0,0,1,1,1,1,1,1
431,Oostzaan,Noord-Holland,52.441111,4.878889,0,0,0,0,0,0,0,0,0,0,0,0,0,0,0,0,0,0,0,1,2,2,3,3,4,5,5,6,7,7,7,7,8
432,Opmeer,Noord-Holland,52.7,4.966667,0,0,0,0,0,0,0,0,0,0,0,0,0,0,0,0,0,0,0,0,0,0,0,0,0,0,0,0,2,2,2,2,3
86,Opsterland,Friesland,53.083332999999996,6.133333,0,0,0,0,0,0,0,0,0,0,0,0,2,2,2,2,2,2,2,2,2,2,2,2,2,3,3,4,5,6,6,6,7
828,Oss,Noord-Brabant,51.75,5.516667,0,0,0,0,1,1,1,1,1,1,1,1,1,2,3,3,4,5,11,14,20,26,35,44,59,65,73,81,100,128,141,141,174
1509,Oude IJsselstreek,Gelderland,51.866667,6.383333,0,0,0,0,0,0,0,0,0,0,0,0,0,0,0,0,0,0,1,2,2,2,2,4,4,4,4,4,5,5,7,7,10
437,Ouder-Amstel,Noord-Holland,52.291111,4.911944,0,0,0,0,0,0,0,0,0,0,0,0,0,0,0,0,0,0,0,2,3,3,3,4,4,5,7,7,7,7,9,9,10
589,Oudewater,Utrecht,52.026944,4.868889,0,0,0,0,0,0,0,0,0,0,0,0,0,0,0,0,0,1,1,1,1,2,2,3,4,4,7,10,12,18,21,21,25
1734,Overbetuwe,Gelderland,51.866667,5.85,0,0,0,0,0,0,0,0,0,0,0,0,0,0,0,0,4,6,8,9,9,11,15,20,22,30,33,38,44,51,54,54,61
590,Papendrecht,Zuid-Holland,51.833333,4.7,0,0,0,0,0,0,0,0,0,0,0,0,0,0,0,0,0,0,0,0,0,1,2,2,4,5,5,6,6,6,7,7,7
1894,Peel en Maas,Limburg,51.316666999999995,5.983333,0,0,0,0,0,0,0,0,0,0,0,0,1,3,4,8,10,14,19,31,36,41,49,63,64,69,79,88,96,107,119,119,140
765,Pekela,Groningen,53.1,7.0,0,0,0,0,0,0,0,0,0,0,0,0,0,0,1,1,1,1,1,1,1,1,1,2,2,2,2,2,2,2,2,2,3
1926,Pijnacker-Nootdorp,Zuid-Holland,52.016667,4.4166669999999995,0,0,0,0,0,0,0,2,2,2,1,2,4,5,5,6,6,7,8,10,11,11,11,11,11,12,14,16,20,23,24,24,29
439,Purmerend,Noord-Holland,52.5,4.966667,0,0,0,0,0,0,0,0,0,0,0,0,0,1,1,2,2,2,2,2,4,7,11,14,20,22,23,32,39,48,52,52,63
273,Putten,Gelderland,52.233333,5.5833330000000005,0,0,0,0,0,0,0,0,0,0,0,0,0,0,0,0,0,0,2,2,2,2,3,3,3,3,3,5,6,6,6,6,6
177,Raalte,Overijssel,52.4,6.283333,0,0,0,0,0,0,0,0,0,0,0,0,0,0,1,1,1,1,2,3,3,3,3,3,5,5,6,10,12,13,15,15,20
703,Reimerswaal,Zeeland,51.45,4.016667,0,0,0,0,0,0,0,0,0,0,0,0,0,0,1,1,1,1,2,2,3,4,5,5,5,5,6,7,7,7,7,7,7
274,Renkum,Gelderland,51.983333,5.85,0,0,0,0,0,0,0,0,1,1,1,5,5,7,7,7,7,8,8,8,8,8,9,9,10,10,11,12,14,17,18,18,21
339,Renswoude,Utrecht,52.073889,5.541111,0,0,0,0,0,0,0,0,0,0,0,0,0,0,0,0,0,0,0,0,0,0,0,0,0,0,0,0,0,1,1,1,1
1667,Reusel-De Mierden,Noord-Brabant,51.361944,5.163056,0,0,0,0,0,0,0,0,0,0,0,0,0,0,0,0,0,0,0,0,0,0,0,0,1,1,1,1,4,4,5,5,7
275,Rheden,Gelderland,52.0,6.033333,0,0,0,0,0,0,0,0,0,0,0,0,1,1,1,1,1,1,1,2,3,4,7,7,10,12,15,18,21,27,30,30,35
340,Rhenen,Utrecht,51.95,5.566667,0,0,0,0,0,0,0,0,0,0,0,0,0,0,0,0,0,0,0,0,0,0,0,0,0,1,1,1,2,5,6,6,6
597,Ridderkerk,Zuid-Holland,51.866667,4.6,0,0,0,0,0,0,0,0,0,1,1,1,1,1,1,1,1,1,1,1,1,1,2,4,5,5,7,9,13,19,27,27,34
1742,Rijssen-Holten,Overijssel,52.3,6.516667,0,0,0,0,0,0,0,0,0,0,0,0,0,0,0,0,0,0,0,0,0,0,2,3,4,4,4,9,13,13,17,17,21
603,Rijswijk,Zuid-Holland,52.033333,4.316667,0,0,0,0,0,0,0,0,0,0,0,0,0,0,0,0,0,0,1,2,3,3,4,4,5,7,8,10,11,14,16,16,20
1669,Roerdalen,Limburg,51.133333,6.0,0,0,0,0,0,0,0,0,0,0,0,0,0,0,0,0,0,0,0,0,1,1,4,4,6,7,10,10,11,13,14,14,18
957,Roermond,Limburg,51.2,5.983333,0,0,0,0,0,0,0,0,0,0,1,1,1,1,1,1,2,2,2,4,6,13,15,18,21,23,26,28,29,31,32,32,38
736,De Ronde Venen,Utrecht,52.211944,4.891111,0,0,0,0,0,0,0,0,0,0,0,0,0,0,0,0,0,0,2,2,2,2,3,3,4,6,8,9,13,17,17,17,24
1674,Roosendaal,Noord-Brabant,51.533333,4.466667,0,0,0,0,0,0,0,0,0,0,0,0,0,1,1,2,2,5,6,6,6,7,8,8,11,16,18,20,24,25,25,25,26
599,Rotterdam,Zuid-Holland,51.95,4.4166669999999995,0,0,0,0,0,1,3,5,9,11,14,14,15,15,15,20,24,25,30,41,58,81,104,120,139,149,163,186,204,249,308,308,375
277,Rozendaal,Gelderland,52.0,5.966667,0,0,0,0,0,0,0,0,0,0,0,0,0,0,0,0,0,1,1,1,2,2,2,2,2,2,2,2,2,2,2,2,2
840,Rucphen,Noord-Brabant,51.531944,4.56,0,0,0,0,0,0,0,0,0,0,0,0,0,0,0,0,0,1,1,1,1,2,3,6,6,6,6,6,6,10,10,10,10
441,Schagen,Noord-Holland,52.783333,4.75,0,0,0,0,0,0,0,0,0,0,0,0,1,1,1,2,3,4,4,4,5,6,6,7,7,7,10,11,12,13,13,13,19
279,Scherpenzeel,Gelderland,52.066666999999995,5.483333,0,0,0,0,0,0,0,0,0,0,0,0,0,0,0,0,0,0,0,0,0,0,0,0,1,2,2,2,3,4,5,5,4
606,Schiedam,Zuid-Holland,51.916667,4.4,0,0,0,0,0,0,0,0,0,0,0,0,0,0,0,0,0,1,1,1,1,2,4,6,8,8,10,14,16,19,22,22,31
88,Schiermonnikoog,Friesland,53.466667,6.15,0,0,0,0,0,0,0,0,0,0,0,0,0,0,0,0,0,0,0,0,0,0,0,0,0,0,0,0,0,0,0,0,0
1676,Schouwen-Duiveland,Zeeland,51.666667,3.8833330000000004,0,0,0,0,0,0,0,0,0,1,2,1,2,1,2,2,2,2,2,2,2,2,2,3,3,3,3,6,8,9,9,9,10
965,Simpelveld,Limburg,50.883333,5.9166669999999995,0,0,0,0,0,0,0,0,2,2,2,2,2,2,2,2,2,3,3,4,5,5,5,5,5,5,7,8,10,10,11,11,14
1702,Sint Anthonis,Noord-Brabant,51.626111,5.881111,0,0,0,0,0,0,0,0,0,0,0,0,0,0,0,0,2,2,3,4,5,8,10,12,13,13,13,13,14,18,21,21,31
845,Sint-Michielsgestel,Noord-Brabant,51.643056,5.358889,0,0,0,0,0,0,0,1,2,3,5,5,5,5,5,5,6,6,8,8,10,10,12,12,14,14,17,18,22,28,29,29,33
1883,Sittard-Geleen,Limburg,51.0,5.85,0,0,0,0,0,0,0,2,5,4,7,8,13,20,20,23,35,37,38,42,51,51,58,58,59,61,84,86,94,98,102,102,114
610,Sliedrecht,Zuid-Holland,51.816666999999995,4.766667,0,0,0,0,0,0,0,0,0,0,0,0,0,0,0,0,0,0,0,1,1,1,2,3,3,3,4,5,7,6,6,6,7
1714,Sluis,Zeeland,51.333333,3.5,0,0,0,0,0,0,0,0,0,0,0,0,0,0,0,0,0,1,2,2,2,2,3,3,4,4,5,5,6,6,6,6,6
90,Smallingerland,Friesland,53.166667000000004,6.1666669999999995,0,0,0,0,0,0,0,0,0,0,0,0,0,1,1,1,2,3,3,3,3,3,3,3,3,3,3,4,5,5,7,7,10
342,Soest,Utrecht,52.183333000000005,5.283333,0,0,0,0,0,0,0,4,6,7,7,7,8,8,8,8,8,8,10,11,12,13,14,15,16,16,20,21,23,28,28,28,30
847,Someren,Noord-Brabant,51.383333,5.7,0,0,0,0,0,0,0,0,0,0,0,0,0,0,0,0,1,1,1,2,3,3,5,5,6,7,7,10,15,19,22,22,29
848,Son en Breugel,Noord-Brabant,51.516110999999995,5.501944,0,0,0,0,0,0,0,0,0,0,0,0,0,1,1,2,2,2,4,4,4,5,7,8,10,10,13,15,19,20,22,22,24
37,Stadskanaal,Groningen,52.983332999999995,6.95,0,0,0,0,0,0,0,0,0,0,0,0,0,0,0,0,0,0,0,0,0,0,0,0,0,0,0,0,1,1,1,1,1
180,Staphorst,Overijssel,52.63333299999999,6.2,0,0,0,0,0,0,0,0,0,0,0,0,0,0,0,0,1,1,1,1,1,2,3,3,3,4,4,4,4,5,5,5,6
532,Stede Broec,Noord-Holland,52.701111,5.225,0,0,0,0,0,0,0,0,0,0,0,0,0,0,0,0,0,0,1,1,1,3,3,5,5,8,9,13,17,18,18,18,20
851,Steenbergen,Noord-Brabant,51.583333,4.316667,0,0,0,0,0,0,0,0,0,0,0,0,0,0,0,0,0,1,2,2,2,4,4,5,8,8,9,11,11,14,14,14,17
1708,Steenwijkerland,Overijssel,52.783333,6.116667,0,0,0,0,0,0,0,0,0,0,0,0,0,0,0,0,0,0,0,1,1,1,1,3,3,4,5,6,8,8,8,8,10
971,Stein,Limburg,50.968056,5.765,0,0,0,0,0,0,0,0,0,0,0,0,0,1,1,1,3,3,3,3,4,4,5,5,6,9,24,24,28,29,31,31,34
1904,Stichtse Vecht,Utrecht,52.2,5.0,0,0,0,0,0,0,0,2,3,4,4,5,5,5,5,6,6,7,7,8,9,10,10,10,12,13,16,22,27,30,31,31,34
1900,Súdwest-Fryslân,Friesland,53.0,5.543889,0,0,0,0,0,0,0,0,0,0,0,0,0,0,1,1,1,1,1,1,2,2,2,4,5,5,6,8,12,15,19,19,23
715,Terneuzen,Zeeland,51.3,3.833333,0,0,0,0,0,0,0,0,0,0,0,0,0,0,0,0,1,1,1,2,3,4,5,5,5,6,6,10,14,16,17,17,20
93,Terschelling,Friesland,53.4,5.35,0,0,0,0,0,0,0,0,0,0,0,0,0,0,0,0,0,0,0,0,0,0,0,0,0,0,0,0,0,0,0,0,0
448,Texel,Noord-Holland,53.066667,4.8,0,0,0,0,0,0,0,0,0,0,0,0,0,0,0,0,0,0,0,0,0,2,3,3,3,3,3,3,3,3,3,3,3
1525,Teylingen,Zuid-Holland,52.216667,4.5,0,0,0,0,0,0,0,0,0,0,0,0,0,0,0,0,0,0,1,2,2,2,3,5,7,7,7,8,10,11,11,11,13
716,Tholen,Zeeland,51.583333,4.116667,0,0,0,0,0,0,0,0,0,0,0,0,0,0,0,0,0,1,1,1,2,2,2,7,7,8,11,13,14,20,25,25,34
281,Tiel,Gelderland,51.883333,5.433333,0,0,0,0,0,0,0,0,0,0,0,1,1,1,2,2,2,3,4,4,4,4,4,4,5,6,8,14,20,23,27,27,33
855,Tilburg,Noord-Brabant,51.55,5.0833330000000005,0,0,0,1,3,2,3,3,4,10,12,27,29,42,50,67,68,68,84,88,95,119,133,154,178,193,211,224,230,254,284,284,330
183,Tubbergen,Overijssel,52.4,6.766667,0,0,0,0,0,0,0,0,0,0,0,1,1,1,1,1,1,1,1,1,1,3,3,3,3,4,4,4,9,11,12,12,14
1700,Twenterand,Overijssel,52.4,6.616667,0,0,0,0,0,0,0,0,0,0,0,0,0,0,0,0,0,0,0,0,0,0,0,1,1,2,3,3,3,5,5,5,8
1730,Tynaarlo,Drenthe,53.066667,6.566667,0,0,0,0,0,0,0,0,0,0,0,0,0,0,0,0,0,0,0,1,3,4,5,7,8,8,10,13,15,16,16,16,17
737,Tytsjerksteradiel,Friesland,53.183333,5.983333,0,0,0,0,0,0,0,0,0,0,0,0,0,0,0,0,0,0,1,1,1,1,1,1,1,1,1,2,2,3,4,4,4
856,Uden,Noord-Brabant,51.666667,5.616667,0,0,0,0,0,0,0,0,2,6,7,12,13,18,21,25,28,33,43,49,53,60,71,76,82,84,92,94,107,123,130,130,154
450,Uitgeest,Noord-Holland,52.528889,4.71,0,0,0,0,0,0,0,0,0,0,0,0,0,0,0,0,0,0,0,0,0,0,2,2,4,4,4,4,4,7,7,7,9
451,Uithoorn,Noord-Holland,52.241944000000004,4.825,0,0,0,0,0,0,0,0,0,0,0,0,0,0,0,0,0,0,0,0,1,2,2,2,2,2,4,5,7,11,16,16,17
184,Urk,Flevoland,52.65,5.6,0,0,0,0,0,0,0,0,0,0,0,0,0,0,0,0,0,0,0,0,1,4,5,6,7,7,7,7,8,9,10,10,14
344,Utrecht,Utrecht,52.083333,5.116667,0,0,0,0,1,2,2,6,8,11,12,13,14,18,25,26,30,38,48,60,69,83,101,121,131,145,160,191,215,243,265,265,307
1581,Utrechtse Heuvelrug,Utrecht,52.041944,5.451111,0,0,0,0,0,0,0,0,1,1,2,2,2,2,2,2,2,2,3,5,6,8,8,8,11,14,14,15,17,22,25,25,32
981,Vaals,Limburg,50.769444,6.018056,0,0,0,0,0,0,0,0,0,0,0,0,0,0,0,0,0,0,0,0,0,0,0,0,0,0,3,4,6,6,6,6,9
994,Valkenburg aan de Geul,Limburg,50.85,5.8333330000000005,0,0,0,0,0,0,0,0,0,0,0,0,0,0,0,0,0,0,1,2,2,2,4,4,4,4,8,9,10,11,12,12,15
858,Valkenswaard,Noord-Brabant,51.35,5.466667,0,0,0,0,0,0,0,0,0,0,0,0,0,0,0,0,0,0,0,0,1,1,2,4,4,5,8,9,17,20,26,26,36
47,Veendam,Groningen,53.1,6.866667,0,0,0,0,0,0,0,0,0,0,0,0,0,0,0,0,0,0,0,0,0,0,0,0,0,0,0,1,1,1,2,2,2
345,Veenendaal,Utrecht,52.016667,5.55,0,0,0,0,0,0,0,0,0,0,0,0,0,0,1,1,1,1,1,1,1,2,2,2,3,6,6,7,7,13,14,14,20
717,Veere,Zeeland,51.55,3.5333330000000003,0,0,0,0,0,0,0,0,0,0,0,0,0,2,1,1,1,1,1,1,1,1,2,5,5,6,6,6,7,8,9,9,9
861,Veldhoven,Noord-Brabant,51.4,5.4,0,0,0,0,0,0,0,0,0,0,0,1,1,1,1,1,1,1,1,1,1,2,5,9,11,11,14,18,22,22,24,24,28
453,Velsen,Noord-Holland,52.466667,4.616667,0,0,0,0,0,0,0,0,0,0,0,0,0,0,1,1,1,1,4,4,4,4,5,8,10,11,15,15,23,25,31,31,40
983,Venlo,Limburg,51.366667,6.1666669999999995,0,0,0,0,0,0,0,0,0,0,0,1,1,1,2,2,3,4,6,8,12,21,24,33,33,35,40,47,54,67,71,71,96
984,Venray,Limburg,51.533333,5.966667,0,0,0,0,0,0,0,0,0,0,0,0,0,0,0,0,0,0,0,0,1,3,6,8,9,10,13,17,20,21,26,26,37
1961,Vijfheerenlanden,Utrecht,51.933333000000005,5.066667,0,0,0,0,0,0,0,0,0,1,1,1,1,1,1,2,2,2,3,4,4,7,7,9,11,12,18,21,24,24,27,27,47
622,Vlaardingen,Zuid-Holland,51.916667,4.35,0,0,0,0,0,0,0,0,0,0,0,0,0,0,1,1,1,1,1,2,2,4,7,12,15,15,18,22,24,28,30,30,43
96,Vlieland,Friesland,53.257001,4.964193,0,0,0,0,0,0,0,0,0,0,0,0,0,0,0,0,0,0,0,0,0,0,0,0,0,0,0,0,0,0,0,0,0
718,Vlissingen,Zeeland,51.45,3.583333,0,0,0,0,0,0,0,0,0,0,0,0,0,0,2,2,2,2,3,4,4,5,6,6,6,8,8,8,8,8,10,10,13
986,Voerendaal,Limburg,50.883333,5.9166669999999995,0,0,0,0,0,0,0,0,0,0,0,0,0,0,0,0,0,0,0,1,3,3,4,4,4,4,5,6,7,7,8,8,13
626,Voorschoten,Zuid-Holland,52.116667,4.433333,0,0,0,0,0,0,0,0,0,0,0,0,0,0,0,0,0,0,0,0,1,1,2,2,3,3,3,5,6,6,7,7,8
285,Voorst,Gelderland,52.233333,6.0833330000000005,0,0,0,0,0,0,0,0,0,0,0,1,1,1,1,1,1,1,1,1,1,1,1,2,2,2,3,6,10,13,15,15,20
865,Vught,Noord-Brabant,51.65,5.283333,0,0,0,0,0,0,0,0,0,0,0,1,1,1,2,2,2,2,3,6,7,8,8,11,15,17,19,22,25,29,31,31,38
1949,Waadhoeke,Friesland,53.183333,5.533333,0,0,0,0,0,0,0,0,0,0,0,0,0,0,0,0,0,0,0,0,0,0,0,0,0,0,0,0,2,3,3,3,6
866,Waalre,Noord-Brabant,51.386944,5.446111,0,0,0,0,0,0,0,0,1,1,1,1,1,1,1,1,1,1,1,1,2,2,2,2,2,2,3,2,6,6,6,6,8
867,Waalwijk,Noord-Brabant,51.7,5.1,0,0,0,0,0,0,0,0,1,3,5,5,5,6,6,9,8,8,10,11,12,13,15,16,22,24,29,34,39,46,54,54,59
627,Waddinxveen,Zuid-Holland,52.033333,4.633333,0,0,0,0,0,0,0,0,0,0,0,0,1,1,1,1,1,1,1,1,1,3,3,4,4,4,4,5,6,7,8,8,9
289,Wageningen,Gelderland,51.966667,5.6666669999999995,0,0,0,0,0,0,0,0,0,0,0,0,0,0,0,0,0,0,0,1,1,1,2,3,3,3,3,3,4,5,7,7,8
629,Wassenaar,Zuid-Holland,52.15,4.383333,0,0,0,0,0,0,0,0,0,0,0,0,0,0,0,1,2,2,3,3,3,4,4,5,5,5,5,5,6,6,6,6,6
852,Waterland,Noord-Holland,52.451111,5.02,0,0,0,0,0,0,0,0,0,0,1,1,1,1,1,1,1,2,3,3,4,7,7,8,8,9,10,11,11,11,11,11,14
988,Weert,Limburg,51.25,5.7,0,0,0,0,0,0,0,0,0,0,0,0,0,0,0,0,0,0,0,0,0,0,4,7,7,12,17,24,28,27,36,36,43
457,Weesp,Noord-Holland,52.516667000000005,5.05,0,0,0,0,0,0,0,0,0,0,0,0,0,0,0,0,0,0,0,0,0,0,1,1,1,1,2,6,7,8,10,10,10
1960,West Betuwe,Gelderland,51.883333,5.283333,0,0,0,0,0,0,0,0,1,2,2,2,2,2,2,3,3,3,3,6,6,8,11,12,12,15,17,19,22,24,34,34,36
668,West Maas en Waal,Gelderland,51.883333,5.516667,0,0,0,0,0,0,0,0,1,1,1,1,1,1,2,2,2,3,3,3,3,3,4,4,6,7,8,11,13,13,15,15,19
1969,Westerkwartier,Groningen,53.224889000000005,6.352806,0,0,0,0,0,0,0,0,0,0,0,0,0,0,0,0,0,1,1,1,1,3,2,3,6,8,8,9,12,15,16,16,20
1701,Westerveld,Drenthe,52.766667000000005,6.233333,0,0,0,0,0,0,0,0,0,0,0,0,0,0,0,0,0,0,0,0,0,0,0,1,1,2,2,2,2,3,4,4,6
293,Westervoort,Gelderland,51.95,5.966667,0,0,0,0,0,0,0,0,0,0,0,0,0,0,0,0,0,0,0,0,0,0,1,1,2,2,2,2,2,2,4,4,5
1950,Westerwolde,Groningen,53.09190400000001,7.126865,0,0,0,0,0,0,0,0,0,0,0,0,0,0,0,0,0,0,0,0,0,0,0,0,0,0,0,3,3,3,3,3,4
1783,Westland,Zuid-Holland,52.0,4.216667,0,0,0,0,0,0,0,0,0,0,0,0,0,0,0,0,0,1,1,3,6,7,9,11,15,21,25,28,30,38,45,45,61
98,Weststellingwerf,Friesland,52.88333299999999,6.0,0,0,0,0,0,0,0,0,0,0,0,0,0,0,0,0,0,0,0,0,0,0,0,1,1,1,1,1,2,2,2,2,3
614,Westvoorne,Zuid-Holland,51.89,4.066111,0,0,0,0,0,0,0,0,1,1,1,1,1,1,1,1,2,3,3,3,3,3,3,3,5,7,8,8,8,9,11,11,12
189,Wierden,Overijssel,52.35,6.5833330000000005,0,0,0,0,0,0,0,0,0,0,0,0,0,0,0,0,0,0,0,0,0,0,0,0,0,0,0,1,2,4,7,7,9
296,Wijchen,Gelderland,51.8,5.716667,0,0,0,0,0,0,0,0,0,0,1,1,1,1,2,3,3,4,5,6,8,8,14,17,20,21,23,24,30,30,35,35,43
1696,Wijdemeren,Noord-Holland,52.216667,5.1,0,0,0,0,0,0,0,0,0,0,0,0,0,0,0,0,0,0,0,0,1,1,1,1,1,1,1,3,4,4,5,5,5
352,Wijk bij Duurstede,Utrecht,51.983333,5.3333330000000005,0,0,0,0,0,0,0,0,1,1,1,1,1,1,2,2,2,3,3,4,4,4,5,6,6,6,6,6,7,7,9,9,11
294,Winterswijk,Gelderland,51.966667,6.716667,0,0,0,0,0,0,0,0,0,0,0,0,0,0,0,0,0,0,0,0,0,0,0,1,2,2,2,2,2,3,3,3,4
873,Woensdrecht,Noord-Brabant,51.433333000000005,4.3,0,0,0,0,0,0,0,0,0,0,0,0,0,0,0,0,0,0,0,0,0,0,0,0,2,3,4,5,5,5,6,6,6
632,Woerden,Utrecht,52.083333,4.883333,0,0,0,0,0,0,0,0,2,2,2,2,2,2,2,2,2,2,2,3,4,4,5,6,7,14,19,22,25,25,34,34,44
1690,De Wolden,Drenthe,52.666667000000004,6.4166669999999995,0,0,0,0,0,0,0,0,0,0,0,0,0,0,0,0,1,1,1,1,1,1,2,3,3,3,3,3,3,3,7,7,7
880,Wormerland,Noord-Holland,52.508889,4.871111,0,0,0,0,0,0,0,0,0,0,0,0,0,0,0,0,0,0,0,0,0,1,1,1,1,2,2,3,5,6,7,7,13
351,Woudenberg,Utrecht,52.066666999999995,5.4,0,0,0,0,0,0,0,0,0,0,0,0,0,1,1,1,1,1,1,1,2,2,3,3,3,4,4,6,7,6,6,6,8
479,Zaanstad,Noord-Holland,52.466667,4.783333,0,0,0,0,0,0,0,0,0,2,2,2,2,2,2,2,2,2,2,2,2,4,3,9,11,19,20,29,31,46,50,50,75
297,Zaltbommel,Gelderland,51.816666999999995,5.25,0,0,0,0,0,0,1,1,1,1,1,1,1,1,1,1,1,1,1,3,3,3,4,5,6,7,7,7,7,9,13,13,16
473,Zandvoort,Noord-Holland,52.61666700000001,4.866667,0,0,0,0,0,0,0,0,0,0,0,0,0,0,0,0,1,1,1,1,1,1,1,2,2,3,6,6,6,6,7,7,10
50,Zeewolde,Flevoland,52.333333,5.533333,0,0,0,0,0,0,0,1,1,1,1,1,1,1,1,1,2,2,2,2,3,3,4,4,4,4,4,5,6,7,7,7,9
355,Zeist,Utrecht,52.083333,5.233333,0,0,0,0,0,0,0,0,0,1,1,1,2,3,4,4,4,6,8,12,12,12,13,17,17,19,20,25,28,34,40,40,47
299,Zevenaar,Gelderland,51.916667,6.0833330000000005,0,0,0,0,0,0,0,0,0,0,0,0,0,0,0,0,0,0,0,0,2,3,5,6,8,9,10,10,10,12,15,15,21
637,Zoetermeer,Zuid-Holland,52.05,4.5,0,0,0,0,0,0,0,0,0,0,0,0,0,0,0,0,0,0,0,0,1,1,4,4,5,7,8,13,14,17,21,21,28
638,Zoeterwoude,Zuid-Holland,52.113889,4.506111,0,0,0,0,0,0,0,0,0,0,0,0,0,0,0,0,0,0,0,0,0,0,0,0,0,0,1,1,1,2,2,2,3
1892,Zuidplas,Zuid-Holland,52.016667,4.616667,0,0,0,0,0,0,0,0,0,0,0,0,0,0,0,0,0,0,0,0,0,0,0,1,3,3,3,6,10,11,15,15,17
879,Zundert,Noord-Brabant,51.47,4.66,0,0,0,0,0,0,0,0,0,0,1,1,1,2,2,3,3,3,3,4,6,6,7,7,7,9,11,14,15,17,23,23,25
301,Zutphen,Gelderland,52.133333,6.2,0,0,0,0,0,0,0,0,0,0,0,0,0,0,0,0,0,0,0,1,1,1,2,4,4,6,6,8,8,10,11,11,16
1896,Zwartewaterland,Overijssel,52.583332999999996,6.0833330000000005,0,0,0,0,0,0,0,0,0,0,0,0,0,0,0,2,2,2,2,4,4,5,9,15,17,19,22,30,33,36,38,38,45
642,Zwijndrecht,Zuid-Holland,51.816666999999995,4.65,0,0,0,0,0,0,0,0,0,0,0,0,0,0,0,0,2,3,3,4,5,6,6,6,6,6,8,9,11,13,13,13,18
193,Zwolle,Overijssel,52.516667000000005,6.0833330000000005,0,0,0,0,0,0,0,0,0,0,1,1,1,2,2,2,3,4,6,8,12,16,18,23,28,35,40,47,56,63,68,68,92
